{"type":"FeatureCollection","features":[
    
{"type":"Feature","properties":{"name":"Fremont CA","country.etc":"CA","pop":" 202574", "happy score":"73.66","capital":"0"},"geometry":{"type":"Point","coordinates":[-122,37.53]}},

{"type":"Feature","properties":{"name":"Bismarck ND","country.etc":"ND","pop":"  56927", "happy score":"71.59","capital":"2"},"geometry":{"type":"Point","coordinates":[-100.77,46.81]}},

{"type":"Feature","properties":{"name":"Fargo ND","country.etc":"ND","pop":"  92396", "happy score":"70.94","capital":"0"},"geometry":{"type":"Point","coordinates":[-96.82,46.88]}},

{"type":"Feature","properties":{"name":"Madison WI","country.etc":"WI","pop":" 227642", "happy score":"70.14","capital":"2"},"geometry":{"type":"Point","coordinates":[-89.39,43.08]}},

{"type":"Feature","properties":{"name":"San Jose CA","country.etc":"CA","pop":" 897883", "happy score":"69.47","capital":"0"},"geometry":{"type":"Point","coordinates":[-121.85,37.3]}},

{"type":"Feature","properties":{"name":"South Burlington VT","country.etc":"VT","pop":"  19162", "happy score":"68.73","capital":"0"},"geometry":{"type":"Point","coordinates":[44.468286,-73.171594]}},

{"type":"Feature","properties":{"name":"Lincoln NE","country.etc":"NE","pop":" 245301", "happy score":"68.35","capital":"2"},"geometry":{"type":"Point","coordinates":[-96.69,40.82]}},

{"type":"Feature","properties":{"name":"Columbia MD","country.etc":"MD","pop":"  97772", "happy score":"67.73","capital":"0"},"geometry":{"type":"Point","coordinates":[-76.86,39.2]}},

{"type":"Feature","properties":{"name":"Cedar Rapids IA","country.etc":"IA","pop":" 123243", "happy score":"67.64","capital":"0"},"geometry":{"type":"Point","coordinates":[-91.67,41.97]}},

{"type":"Feature","properties":{"name":"Santa Rosa CA","country.etc":"CA","pop":" 156669", "happy score":"67.59","capital":"0"},"geometry":{"type":"Point","coordinates":[-122.7,38.45]}},

{"type":"Feature","properties":{"name":"Sioux Falls SD","country.etc":"SD","pop":" 143534", "happy score":"67.43","capital":"0"},"geometry":{"type":"Point","coordinates":[-96.73,43.54]}},

{"type":"Feature","properties":{"name":"Irvine CA","country.etc":"CA","pop":" 199755","happy score":"67.27","capital":"0"},"geometry":{"type":"Point","coordinates":[-117.8,33.66]}},

{"type":"Feature","properties":{"name":"San Francisco CA","country.etc":"CA","pop":" 723724", "happy score":"67.11,"capital":"0"},"geometry":{"type":"Point","coordinates":[-122.45,37.77]}},

14.
{"type":"Feature","properties":{"name":"Pearl City HI","country.etc":"Hi","pop":" 45605","happy score":"66.58","capital":"0"},"geometry":{"type":"Point","coordinates":[21.398204,-157.9683955]}},

15.
{"type":"Feature","properties":{"name":"Burlington VT","country.etc":"VT","pop":"  42525", "happy score":"66.19","capital":"0"},"geometry":{"type":"Point","coordinates":[44.475949,-73.212481]}},

16.
{"type":"Feature","properties":{"name":"Minneapolis MN","country.etc":"MN","pop":" 364726", "happy score":"65.98","capital":"0"},"geometry":{"type":"Point","coordinates":[-93.27,44.96]}},


17.
{"type":"Feature","properties":{"name":"Plano TX","country.etc":"TX","pop":" 260415","happy score":"65.87","capital":"0"},"geometry":{"type":"Point","coordinates":[-96.75,33.05]}},


18.
{"type":"Feature","properties":{"name":"Charleston SC","country.etc":"SC","pop":" 106372", "happy score":"65.1","capital":"0"},"geometry":{"type":"Point","coordinates":[-79.99,32.79]}},


19.
{"type":"Feature","properties":{"name":"Rapid City SD","country.etc":"SD","pop":"  62302", "happy score":"65","capital":"0"},"geometry":{"type":"Point","coordinates":[-103.23,44.08]}},


20.
{"type":"Feature","properties":{"name":"Seattle WA","country.etc":"WA","pop":" 570430","happy score":"64.74","capital":"0"},"geometry":{"type":"Point","coordinates":[-122.35,47.62]}},

21.
{"type":"Feature","properties":{"name":"Boise ID","country.etc":"ID","pop":" 193628", "happy score":"64.55","capital":"2"},"geometry":{"type":"Point","coordinates":[-116.23,43.61]}},


22.
{"type":"Feature","properties":{"name":"Honolulu HI","country.etc":"HI","pop":" 386345", "happy score":"64.45","capital":"2"},"geometry":{"type":"Point","coordinates":[-157.8,21.32]}},

23.
{"type":"Feature","properties":{"name":"Portland ME","country.etc":"ME","pop":"  62882", "happy score":"64.4","capital":"0"},"geometry":{"type":"Point","coordinates":[-70.28,43.66]}},

24.
{"type":"Feature","properties":{"name":"Saint Paul MN","country.etc":"MN","pop":" 272469", "happy score":"64.31","capital":"2"},"geometry":{"type":"Point","coordinates":[-93.1,44.95]}},

25.
{"type":"Feature","properties":{"name":"Scottsdale AZ","country.etc":"AZ","pop":" 230949", "happy score":"64.22","capital":"0"},"geometry":{"type":"Point","coordinates":[-111.87,33.69]}},



26.
{"type":"Feature","properties":{"name":"San Diego CA","country.etc":"CA","pop":"1299352", "happy score":"64.17","capital":"0"},"geometry":{"type":"Point","coordinates":[-117.14,32.81]}},


27.
{"type":"Feature","properties":{"name":"Austin TX","country.etc":"TX","pop":" 683404", "happy score":"64.13","capital":"2"},"geometry":{"type":"Point","coordinates":[-97.75,30.31]}},


28.
{"type":"Feature","properties":{"name":"Overland Park KS","country.etc":"KS","pop":" 169520", "happy score":"64.09","capital":"0"},"geometry":{"type":"Point","coordinates":[-94.68,38.91]}},

29.
{"type":"Feature","properties":{"name":"Missoula MT","country.etc":"MT","pop":"  64391", "happy score":"63.76","capital":"0"},"geometry":{"type":"Point","coordinates":[-114.01,46.87]}},


30.
{"type":"Feature","properties":{"name":"Grand Rapids MI","country.etc":"MI","pop":" 193006", "happy score":"63.56","capital":"0"},"geometry":{"type":"Point","coordinates":[-85.66,42.96]}},

31.
{"type":"Feature","properties":{"name":"Cape Coral FL","country.etc":"FL","pop":" 137134", "happy score":"63.23","capital":"0"},"geometry":{"type":"Point","coordinates":[-82,26.64]}},

32.
{"type":"Feature","properties":{"name":"Raleigh NC","country.etc":"NC","pop":" 350822", "happy score":"62.97","capital":"2"},"geometry":{"type":"Point","coordinates":[-78.66,35.82]}},


33.
{"type":"Feature","properties":{"name":"Huntington Beach CA","country.etc":"CA","pop":" 197124" "happy score":"62.95","capital":"0"},"geometry":{"type":"Point","coordinates":[-118.01,33.69]}},

34.
{"type":"Feature","properties":{"name":"Aurora CO","country.etc":"CO","pop":" 304641", "happy score":"62.56","capital":"0"},"geometry":{"type":"Point","coordinates":[-104.73,39.71]}},

35.
{"type":"Feature","properties":{"name":"Omaha NE","country.etc":"NE","pop":" 417809", "happy score":"62.53","capital":"0"},"geometry":{"type":"Point","coordinates":[-96.01,41.26]}},

36.
{"type":"Feature","properties":{"name":"Des Moines IA","country.etc":"IA","pop":" 192050", "happy score":"62.33","capital":"2"},"geometry":{"type":"Point","coordinates":[-93.62,41.58]}},

37.
{"type":"Feature","properties":{"name":"Gilbert AZ","country.etc":"AZ","pop":" "happy score":"62.09", 186332","capital":"0"},"geometry":{"type":"Point","coordinates":[-111.76,33.33]}},

38.
{"type":"Feature","properties":{"name":"Oakland CA","country.etc":"CA","pop":" 393632", "happy score":"61.38","capital":"0"},"geometry":{"type":"Point","coordinates":[-122.22,37.77]}},

39.
{"type":"Feature","properties":{"name":"Durham NC","country.etc":"NC","pop":" 208426", "happy score":"61.18","capital":"0"},"geometry":{"type":"Point","coordinates":[-78.91,35.98]}},

40.
{"type":"Feature","properties":{"name":"Garden Grove CA","country.etc":"CA","pop":" 167647", "happy score":"60.81","capital":"0"},"geometry":{"type":"Point","coordinates":[-117.96,33.78]}},

41.
{"type":"Feature","properties":{"name":"Anaheim CA","country.etc":"CA","pop":" 334909", "happy score":"60.81","capital":"0"},"geometry":{"type":"Point","coordinates":[-117.87,33.84]}},


42. 
{"type":"Feature","properties":{"name":"Aurora IL","country.etc":"IL","pop":" 181120", "happy score":"60.57","capital":"0"},"geometry":{"type":"Point","coordinates":[-88.29,41.77]}},

43.
{"type":"Feature","properties":{"name":"Portland OR","country.etc":"OR","pop":" 542751", "happy score":"60.52","capital":"0"},"geometry":{"type":"Point","coordinates":[-122.66,45.54]}},

44.
{"type":"Feature","properties":{"name":"Oceanside CA","country.etc":"CA","pop":" 172251", "happy score":"60.5","capital":"0"},"geometry":{"type":"Point","coordinates":[-117.31,33.23]}},

45.
{"type":"Feature","properties":{"name":"Chula Vista CA","country.etc":"CA","pop":" 221736", "happy score":"60.24","capital":"0"},"geometry":{"type":"Point","coordinates":[-117.04,32.63]}},


46.
{"type":"Feature","properties":{"name":"Virginia Beach VA","country.etc":"VA","pop":" 453884", "happy score":"60.09","capital":"0"},"geometry":{"type":"Point","coordinates":[-76.04,36.74]}},


47.
{ "type":"Feature","properties":{"name":"Oxnard CA","country.etc":"CA","pop":" 190658", "happy score":"60.02","capital":"0"},"geometry":{"type":"Point","coordinates":[-119.21,34.2]}},


48.
{"type":"Feature","properties":{"name":"Nampa ID","country.etc":"ID","pop":"  77893", "happy score":"59.97","capital":"0"},"geometry":{"type":"Point","coordinates":[-116.56,43.58]}},


49.
{"type":"Feature","properties":{"name":"Chandler AZ","country.etc":"AZ","pop":" 247915", "happy score":"59.86","capital":"0"},"geometry":{"type":"Point","coordinates":[-111.87,33.3]}},

50.
{"type":"Feature","properties":{"name":"Nashua NH","country.etc":"NH","pop":"  87113", "happy score":"59.84","capital":"0"},"geometry":{"type":"Point","coordinates":[-71.49,42.75]}},

51.
{"type":"Feature","properties":{"name":"WASHINGTON DC","country.etc":"DC","pop":" 548359", "happy score":"59.59","capital":"0"},"geometry":{"type":"Point","coordinates":[-77.02,38.91]}},

52.
{"type":"Feature","properties":{"name":"Peoria AZ","country.etc":"AZ","pop":" 146634", "happy score":"59.43","capital":"0"},"geometry":{"type":"Point","coordinates":[-112.24,33.69]}},

53.
{"type":"Feature","properties":{"name":"Port Saint Lucie FL","country.etc":"FL","pop":" 126377", "happy score":"59.33","capital":"0"},"geometry":{"type":"Point","coordinates":[-80.35,27.28]}},

54.
{"type":"Feature","properties":{"name":"Santa Clarita CA","country.etc":"CA","pop":" 172730", "happy score":"59.26","capital":"0"},"geometry":{"type":"Point","coordinates":[-118.51,34.41]}},

55.
{"type":"Feature","properties":{"name":"Tempe AZ","country.etc":"AZ","pop":" 158313", "happy score":"59.17","capital":"0"},"geometry":{"type":"Point","coordinates":[-111.93,33.39]}},


56.
{"type":"Feature","properties":{"name":"Colorado Springs CO","country.etc":"CO","pop":" 375744", "happy score":"59.07","capital":"0"},"geometry":{"type":"Point","coordinates":[-104.76,38.86]}},

57.

{"type":"Feature","properties":{"name":"Sacramento CA","country.etc":"CA","pop":" 480392", "happy score":"59.07","capital":"2"},"geometry":{"type":"Point","coordinates":[-121.47,38.57]}},

58.
{"type":"Feature","properties":{"name":"Glendale CA","country.etc":"CA","pop":" 204747", "happy score":"58.93","capital":"0"},"geometry":{"type":"Point","coordinates":[-118.25,34.18]}},

59.
{"type":"Feature","properties":{"name":"Salt Lake City UT","country.etc":"UT","pop":" 177318", "happy score":"58.51","capital":"2"},"geometry":{"type":"Point","coordinates":[-111.93,40.78]}},

60.
{"type":"Feature","properties":{"name":"Denver CO","country.etc":"CO","pop":" 556575", "happy score":"58.32","capital":"2"},"geometry":{"type":"Point","coordinates":[-104.87,39.77]}},

61.
{"type":"Feature","properties":{"name":"Boston MA","country.etc":"MA","pop":" 567759", "happy score":"58.24","capital":"2"},"geometry":{"type":"Point","coordinates":[-71.02,42.34]}},

62.
{"type":"Feature","properties":{"name":"Reno NV","country.etc":"NV","pop":" 206626", "happy score":"58.16","capital":"0"},"geometry":{"type":"Point","coordinates":[-119.82,39.54]}},

63.
{"type":"Feature","properties":{"name":"Amarillo TX","country.etc":"TX","pop":" 183295", "happy score":"58.08","capital":"0"},"geometry":{"type":"Point","coordinates":[-101.82,35.2]}},

64.
{"type":"Feature","properties":{"name":"Juneau AK","country.etc":"AK","pop":"  31187", "happy score":"57.96","capital":"2"},"geometry":{"type":"Point","coordinates":[-134.42,58.3]}},

65.
{"type":"Feature","properties":{"name":"Pembroke Pines FL","country.etc":"FL","pop":" 160157", "happy score":"57.94","capital":"0"},"geometry":{"type":"Point","coordinates":[-80.34,26.01]}},
    
66.
{"type":"Feature","properties":{"name":"Santa Ana CA","country.etc":"CA","pop":" 344086", "happy score":"57.85","capital":"0"},"geometry":{"type":"Point","coordinates":[-117.88,33.74]}},

67.
{"type":"Feature","properties":{"name":"Charlotte NC","country.etc":"NC","pop":" 607111", "happy score":"57.79","capital":"0"},"geometry":{"type":"Point","coordinates":[-80.83,35.2]}},

68.
{"type":"Feature","properties":{"name":"Chesapeake VA","country.etc":"VA","pop":" 223222", "happy score":"57.74","capital":"0"},"geometry":{"type":"Point","coordinates":[-76.31,36.68]}},

69.
{"type":"Feature","properties":{"name":"Manchester NH","country.etc":"NH","pop":" 110384", "happy score":"57.66","capital":"0"},"geometry":{"type":"Point","coordinates":[-71.44,42.98]}},

70.
{"type":"Feature","properties":{"name":"Grand Prairie TX","country.etc":"TX","pop":" 144018", "happy score":"57.2","capital":"0"},"geometry":{"type":"Point","coordinates":[-97.02,32.69]}},

71.
{"type":"Feature","properties":{"name":"Rancho Cucamonga CA","country.etc":"CA","pop":" 177721", "happy score":"57.06","capital":"0"},"geometry":{"type":"Point","coordinates":[-117.57,34.12]}},

72.
{"type":"Feature","properties":{"name":"Anchorage AK","country.etc":"AK","pop":" 279428", "happy score":"56.99","capital":"0"},"geometry":{"type":"Point","coordinates":[-149.19,61.18]}},

73.
{"type":"Feature","properties":{"name":"Billings MT","country.etc":"MT","pop":" 101249", "happy score":"56.92","capital":"0"},"geometry":{"type":"Point","coordinates":[-108.54,45.79]}},

74.
{"type":"Feature","properties":{"name":"Vancouver WA","country.etc":"WA","pop":" 161034", "happy score":"56.89","capital":"0"},"geometry":{"type":"Point","coordinates":[-122.64,45.63]}},

75.
{"type":"Feature","properties":{"name":"Yonkers NY","country.etc":"NY","pop":" 198045", "happy score":"56.89","capital":"0"},"geometry":{"type":"Point","coordinates":[-73.87,40.95]}},

76.
{"type":"Feature","properties":{"name":"Pittsburgh PA","country.etc":"PA","pop":" 316272", "happy score":"56.28","capital":"0"},"geometry":{"type":"Point","coordinates":[-79.98,40.44]}},

77.
{"type":"Feature","properties":{"name":"Garland TX","country.etc":"TX","pop":" 217609", "happy score":"56.24","capital":"0"},"geometry":{"type":"Point","coordinates":[-96.63,32.91]}},

78.
{"type":"Feature","properties":{"name":"Cheyenne WY","country.etc":"WY","pop":"  55833", "happy score":"56.08","capital":"2"},"geometry":{"type":"Point","coordinates":[-104.79,41.15]}},

79.
{"type":"Feature","properties":{"name":"Columbia SC","country.etc":"SC","pop":" 118020", "happy score":"56.08","capital":"2"},"geometry":{"type":"Point","coordinates":[-80.89,34.04]}},

80.
{"type":"Feature","properties":{"name":"Tallahassee FL","country.etc":"FL","pop":" 154114", "happy score":"55.99","capital":"2"},"geometry":{"type":"Point","coordinates":[-84.28,30.46]}},

81.
{"type":"Feature","properties":{"name":"Nashville TN","country.etc":"TN","pop":" 523547", "happy score":"55.93","capital":"2"},"geometry":{"type":"Point","coordinates":[-86.78,36.17]}},

82.
{"type":"Feature","properties":{"name":"Mesa AZ","country.etc":"AZ","pop":" 461167", "happy score":"55.92","capital":"0"},"geometry":{"type":"Point","coordinates":[-111.74,33.42]}},

83.
{"type":"Feature","properties":{"name":"Fort Worth TX","country.etc":"TX","pop":" 633849", "happy score":"55.76","capital":"0"},"geometry":{"type":"Point","coordinates":[-97.34,32.75]}},

84.
{"type":"Feature","properties":{"name":"Chicago IL","country.etc":"IL","pop":"2830144", "happy score":"55.65","capital":"0"},"geometry":{"type":"Point","coordinates":[-87.68,41.84]}},

85.
{"type":"Feature","properties":{"name":"Irving TX","country.etc":"TX","pop":" 194407", "happy score":"55.31","capital":"0"},"geometry":{"type":"Point","coordinates":[-96.97,32.86]}},

86.
{"type":"Feature","properties":{"name":"Tampa FL","country.etc":"FL","pop":" 328578", "happy score":"55.23","capital":"0"},"geometry":{"type":"Point","coordinates":[-82.48,27.96]}},

87.
{"type":"Feature","properties":{"name":"West Valley City UT","country.etc":"UT","pop":" 113989", "happy score":"55.23","capital":"0"},"geometry":{"type":"Point","coordinates":[-112.01,40.69]}},

88.
{"type":"Feature","properties":{"name":"Lewiston ME","country.etc":"ME","pop":" 36095", "happy score":"55.13","capital":"0"},"geometry":{"type":"Point","coordinates":[44.100658,-70.214978]}},

89.
{"type":"Feature","properties":{"name":"Riverside CA","country.etc":"CA","pop":" 306351", "happy score":"54.79","capital":"0"},"geometry":{"type":"Point","coordinates":[-117.4,33.94]}},

90.
{"type":"Feature","properties":{"name":"Atlanta GA","country.etc":"GA","pop":" 424096", "happy score":"54.75","capital":"2"},"geometry":{"type":"Point","coordinates":[-84.42,33.76]}},

91.
{"type":"Feature","properties":{"name":"Huntsville AL","country.etc":"AL","pop":" 169155", "happy score":"54.7","capital":"0"},"geometry":{"type":"Point","coordinates":[-86.63,34.71]}},

92.
{"type":"Feature","properties":{"name":"Tacoma WA","country.etc":"WA","pop":" 197621", "happy score":"54.59","capital":"0"},"geometry":{"type":"Point","coordinates":[-122.46,47.25]}},

93.
{"type":"Feature","properties":{"name":"Moreno Valley CA","country.etc":"CA","pop":" 174068", "happy score":"54.48","capital":"0"},"geometry":{"type":"Point","coordinates":[-117.21,33.93]}},

94.
{"type":"Feature","properties":{"name":"Fort Wayne IN","country.etc":"IN","pop":" 231147", "happy score":"54.45","capital":"0"},"geometry":{"type":"Point","coordinates":[-85.14,41.07]}},

95.
{"type":"Feature","properties":{"name":"Springfield MO","country.etc":"MO","pop":" 150128", "happy score":"54.24","capital":"0"},"geometry":{"type":"Point","coordinates":[-93.29,37.2]}},

96.
{"type":"Feature","properties":{"name":"Casper WY","country.etc":"WY","pop":"  51808", "happy score":"54.21","capital":"0"},"geometry":{"type":"Point","coordinates":[-106.33,42.83]}},

97.
{"type":"Feature","properties":{"name":"Lexington KY","country.etc":"KY","pop":" 274245", "happy score":"54.2","capital":"0"},"geometry":{"type":"Point","coordinates":[-84.46,38.04]}},

98.
{"type":"Feature","properties":{"name":"Fort Lauderdale FL","country.etc":"FL","pop":" 173597", "happy score":"54.12","capital":"0"},"geometry":{"type":"Point","coordinates":[-80.14,26.14]}},

99.
{"type":"Feature","properties":{"name":"East Los Angeles CA","country.etc":"CA","pop":" 125121", "happy score":"53.99","capital":"0"},"geometry":{"type":"Point","coordinates":[-118.17,34.03]}},

100.
{"type":"Feature","properties":{"name":"Salem OR","country.etc":"OR","pop":" 148942", "happy score":"53.95","capital":"2"},"geometry":{"type":"Point","coordinates":[-123.02,44.92]}},

101.
"type":"Feature","properties":{"name":"Las Cruces NM","country.etc":"NM","pop":"  81473", "happy score":"53.72","capital":"0"},"geometry":{"type":"Point","coordinates":[-106.76,32.34]}},

102.
{"type":"Feature","properties":{"name":"Arlington TX","country.etc":"TX","pop":" 374729", "happy score":"53.58","capital":"0"},"geometry":{"type":"Point","coordinates":[-97.13,32.69]}},

103.
{"type":"Feature","properties":{"name":"Modesto CA","country.etc":"CA","pop":" 221674", "happy score":"53.37","capital":"0"},"geometry":{"type":"Point","coordinates":[-120.99,37.66]}},

104.
{"type":"Feature","properties":{"name":"Dallas TX","country.etc":"TX","pop":"1216543", "happy score":"53.3","capital":"0"},"geometry":{"type":"Point","coordinates":[-96.77,32.79]}},

105.
{"type":"Feature","properties":{"name":"Ontario CA","country.etc":"CA","pop":" 175805", "happy score":"53.27","capital":"0"},"geometry":{"type":"Point","coordinates":[-117.61,34.05]}},

106.
{"type":"Feature","properties":{"name":"Spokane WA","country.etc":"WA","pop":" 197513", "happy score":"53.1","capital":"0"},"geometry":{"type":"Point","coordinates":[-117.41,47.67]}},

107.
{"type":"Feature","properties":{"name":"Fontana CA","country.etc":"CA","pop":" 178257", "happy score":"52.96","capital":"0"},"geometry":{"type":"Point","coordinates":[-117.46,34.1]}},

108.
{"type":"Feature","properties":{"name":"Jersey City NJ","country.etc":"NJ","pop":" 237125", "happy score":"52.88","capital":"0"},"geometry":{"type":"Point","coordinates":[-74.06,40.71]}},

109.
{"type":"Feature","properties":{"name":"Saint Petersburg FL","country.etc":"FL","pop":" 245804", "happy score":"52.57","capital":"0"},"geometry":{"type":"Point","coordinates":[-82.64,27.76]}

110.
{"type":"Feature","properties":{"name":"Columbus OH","country.etc":"OH","pop":" 741677", "happy score":"52.48","capital":"2"},"geometry":{"type":"Point","coordinates":[-82.99,39.99]}},

111.
{"type":"Feature","properties":{"name":"Jacksonville FL","country.etc":"FL","pop":" 809874", "happy score":"52.41","capital":"0"},"geometry":{"type":"Point","coordinates":[-81.66,30.33]}},

112.
{"type":"Feature","properties":{"name":"Long Beach CA","country.etc":"CA","pop":" 486571", "happy score":"52.39","capital":"0"},"geometry":{"type":"Point","coordinates":[-118.16,33.79]}},

113.
{"type":"Feature","properties":{"name":"Bridgeport CT","country.etc":"CT","pop":" 138901", "happy score":"52.37","capital":"0"},"geometry":{"type":"Point","coordinates":[-73.2,41.19]}},

114.
{"type":"Feature","properties":{"name":"Milwaukee WI","country.etc":"WI","pop":" 575250", "happy score":"52.28","capital":"0"},"geometry":{"type":"Point","coordinates":[-87.97,43.06]}},

115.
{"type":"Feature","properties":{"name":"Henderson NV","country.etc":"NV","pop":" 255646", "happy score":"52.26","capital":"0"},"geometry":{"type":"Point","coordinates":[-115,36.03]}},

116.
{"type":"Feature","properties":{"name":"Warwick RI","country.etc":"RI","pop":"  88443", "happy score":"52.07","capital":"0"},"geometry":{"type":"Point","coordinates":[-71.42,41.7]}},

117.
{"type":"Feature","properties":{"name":"Lubbock TX","country.etc":"TX","pop":" 213587", "happy score":"51.83","capital":"0"},"geometry":{"type":"Point","coordinates":[-101.88,33.58]}},

118.
{"type":"Feature","properties":{"name":"Kansas City MO","country.etc":"MO","pop":" 441833", "happy score":"51.9","capital":"0"},"geometry":{"type":"Point","coordinates":[-94.55,39.12]}},

119.
{"type":"Feature","properties":{"name":"Glendale AZ","country.etc":"AZ","pop":" 244734", "happy score":"51.71","capital":"0"},"geometry":{"type":"Point","coordinates":[-112.2,33.58]}},

120.
{"type":"Feature","properties":{"name":"Albuquerque NM","country.etc":"NM","pop":" 494962", "happy score":"51.04","capital":"0"},"geometry":{"type":"Point","coordinates":[-106.62,35.12]}},

121.
{"type":"Feature","properties":{"name":"Orlando FL","country.etc":"FL","pop":" 211226", "happy score":"50.93","capital":"0"},"geometry":{"type":"Point","coordinates":[-81.37,28.5]}},

122.
{"type":"Feature","properties":{"name":"New York NY","country.etc":"NY","pop":"8124427", "happy score":"50.91","capital":"0"},"geometry":{"type":"Point","coordinates":[-73.94,40.67]}},

123.
{"type":"Feature","properties":{"name":"Houston TX","country.etc":"TX","pop":"2043005", "happy score":"50.83","capital":"0"},"geometry":{"type":"Point","coordinates":[-95.39,29.77]}},

124.
{"type":"Feature","properties":{"name":"Rochester NY","country.etc":"NY","pop":" 209587", "happy score":"50.52","capital":"0"},"geometry":{"type":"Point","coordinates":[-77.62,43.17]}},

125.
{"type":"Feature","properties":{"name":"Brownsville TX","country.etc":"TX","pop":" 174135", "happy score":"50.21","capital":"0"},"geometry":{"type":"Point","coordinates":[-97.48,25.93]}},

126.
{"type":"Feature","properties":{"name":"Phoenix AZ","country.etc":"AZ","pop":"1450884", "happy score":"50.13","capital":"2"},"geometry":{"type":"Point","coordinates":[-112.07,33.54]}},

127.
{"type":"Feature","properties":{"name":"Winston-Salem NC","country.etc":"NC","pop":" 194826", "happy score":"49.92","capital":"0"},"geometry":{"type":"Point","coordinates":[-80.26,36.1]}},

128.
{"type":"Feature","properties":{"name":"El Paso TX","country.etc":"TX","pop":" 603545", "happy score":"49.92","capital":"0"},"geometry":{"type":"Point","coordinates":[-106.44,31.85]}},

129.
{"type":"Feature","properties":{"name":"Fort Smith AR","country.etc":"AR","pop":"  82304", "happy score":"49.83","capital":"0"},"geometry":{"type":"Point","coordinates":[-94.38,35.37]}},

130.
{"type":"Feature","properties":{"name":"Miami FL","country.etc":"FL","pop":" 386740", "happy score":"49.82","capital":"0"},"geometry":{"type":"Point","coordinates":[-80.21,25.78]}},

131.
{"type":"Feature","properties":{"name":"Richmond VA","country.etc":"VA","pop":" 189498", "happy score":"49.68","capital":"2"},"geometry":{"type":"Point","coordinates":[-77.47,37.53]}},

132.
{"type":"Feature","properties":{"name":"Greensboro NC","country.etc":"NC","pop":" 233342", "happy score":"49.51","capital":"0"},"geometry":{"type":"Point","coordinates":[-79.83,36.08]}},

133.
{"type":"Feature","properties":{"name":"Jackson MS","country.etc":"MS","pop":" 175085", "happy score":"49.41","capital":"2"},"geometry":{"type":"Point","coordinates":[-90.21,32.32]}},

134.
{"type":"Feature","properties":{"name":"Norfolk VA","country.etc":"VA","pop":" 248182", "happy score":"49.35","capital":"0"},"geometry":{"type":"Point","coordinates":[-76.24,36.92]}},

135.
{"type":"Feature","properties":{"name":"Buffalo NY","country.etc":"NY","pop":" 276762", "happy score":"49.18","capital":"0"},"geometry":{"type":"Point","coordinates":[-78.86,42.89]}},

136.
{"type":"Feature","properties":{"name":"Indianapolis IN","country.etc":"IN","pop":" 771725", "happy score":"49.14","capital":"2"},"geometry":{"type":"Point","coordinates":[-86.15,39.78]}},

137.
{"type":"Feature","properties":{"name":"Corpus Christi TX","country.etc":"TX","pop":" 280808", "happy score":49.11","capital":"0"},"geometry":{"type":"Point","coordinates":[-97.29,27.71]}},

138.
{"type":"Feature","properties":{"name":"Worcester MA","country.etc":"MA","pop":" 177973", "happy score":"48.92","capital":"0"},"geometry":{"type":"Point","coordinates":[-71.81,42.27]}},

139.
{"type":"Feature","properties":{"name":"Chattanooga TN","country.etc":"TN","pop":" 153617", "happy score":"48.84","capital":"0"},"geometry":{"type":"Point","coordinates":[-85.26,35.07]}},

140.
{"type":"Feature","properties":{"name":"Knoxville TN","country.etc":"TN","pop":" 172000", "happy score":"48.66","capital":"0"},"geometry":{"type":"Point","coordinates":[-83.95,35.97]}},

141.
{"type":"Feature","properties":{"name":"San Antonio TX","country.etc":"TX","pop":"1278171", "happy score":"48.61","capital":"0"},"geometry":{"type":"Point","coordinates":[-98.51,29.46]}},

142.
{"type":"Feature","properties":{"name":"Tucson AZ","country.etc":"AZ","pop":" 525268", "happy score":"48.37","capital":"0"},"geometry":{"type":"Point","coordinates":[-110.89,32.2]}},

143.
{"type":"Feature","properties":{"name":"Oklahoma City OK","country.etc":"OK","pop":" 538141", "happy score":"48.36","capital":"2"},"geometry":{"type":"Point","coordinates":[-97.51,35.47]}},

144.
{"type":"Feature","properties":{"name":"New Haven CT","country.etc":"CT","pop":" 125030", "happy score":"48.16","capital":"0"},"geometry":{"type":"Point","coordinates":[-72.92,41.31]}},

145.
{"type":"Feature","properties":{"name":"Providence RI","country.etc":"RI","pop":" 178295", "happy score":"47.95","capital":"2"},"geometry":{"type":"Point","coordinates":[-71.42,41.82]}},

146.
{"type":"Feature","properties":{"name":"Wichita KS","country.etc":"KS","pop":" 356051", "happy score":"47.87","capital":"0"},"geometry":{"type":"Point","coordinates":[-97.34,37.69]}},

147.
{"type":"Feature","properties":{"name":"Little Rock AR","country.etc":"AR","pop":" 184323", "happy score":"57.56","capital":"2"},"geometry":{"type":"Point","coordinates":[-92.35,34.72]}},

148.
{"type":"Feature","properties":{"name":"Shreveport LA","country.etc":"LA","pop":" 196228", "happy score":"57.55","capital":"0"},"geometry":{"type":"Point","coordinates":[-93.8,32.47]}},

149.
{"type":"Feature","properties":{"name":"Cincinnati OH","country.etc":"OH","pop":" 301561","happy score":"47.43","capital":"0"},"geometry":{"type":"Point","coordinates":[-84.51,39.14]}},

150.
{"type":"Feature","properties":{"name":"Stockton CA","country.etc":"CA","pop":" 299188", "happy score":"47.13","capital":"0"},"geometry":{"type":"Point","coordinates":[-121.31,37.97]}},

151.
{"type":"Feature","properties":{"name":"Las Vegas NV","country.etc":"NV","pop":" 553807", "happy score":"47.04","capital":"0"},"geometry":{"type":"Point","coordinates":[-115.22,36.21]}},

152.
{"type":"Feature","properties":{"name":"New Orleans LA","country.etc":"LA","pop":" 454207", "happy score":"47","capital":"0"},"geometry":{"type":"Point","coordinates":[-89.93,30.07]}},

153.
{"type":"Feature","properties":{"name":"Louisville KY","country.etc":"KY","pop":" 241072", "happy score":"46.55","capital":"0"},"geometry":{"type":"Point","coordinates":[-85.74,38.22]}},

154.
{"type":"Feature","properties":{"name":"Akron OH","country.etc":"OH","pop":" 206634", "happy score":"46.48","capital":"0"},"geometry":{"type":"Point","coordinates":[-81.52,41.08]}},

155.
{"type":"Feature","properties":{"name":"Bakersfield CA","country.etc":"CA","pop":" 301775", "happy score":"46.44","capital":"0"},"geometry":{"type":"Point","coordinates":[-119,35.36]}},

156.
{"type":"Feature","properties":{"name":"Fresno CA","country.etc":"CA","pop":" 472517", "happy score":"46.43","capital":"0"},"geometry":{"type":"Point","coordinates":[-119.79,36.78]}},

157.
{"type":"Feature","properties":{"name":"Baltimore MD","country.etc":"MD","pop":" 602658", "happy score":"46.23","capital":"0"},"geometry":{"type":"Point","coordinates":[-76.61,39.3]}},

158.
{"type":"Feature","properties":{"name":"Hialeah FL","country.etc":"FL","pop":" 224644", "happy score":"46.02","capital":"0"},"geometry":{"type":"Point","coordinates":[-80.3,25.86]}},

159.
{"type":"Feature","properties":{"name":"North Las Vegas NV","country.etc":"NV","pop":" 177751", "happy score":"45.92","capital":"0"},"geometry":{"type":"Point","coordinates":[-115.14,36.27]}},

160.
{"type":"Feature","properties":{"name":"Philadelphia PA","country.etc":"PA","pop":"1439814", "happy score":"45.8","capital":"0"},"geometry":{"type":"Point","coordinates":[-75.13,40.01]}},

161.
{"type":"Feature","properties":{"name":"Laredo TX","country.etc":"TX","pop":" 218041", "happy score":"45.72","capital":"0"},"geometry":{"type":"Point","coordinates":[-99.49,27.53]}},

162.
{"type":"Feature","properties":{"name":"Baton Rouge LA","country.etc":"LA","pop":" 222217", "happy score":"45.54","capital":"2"},"geometry":{"type":"Point","coordinates":[-91.13,30.45]}},

163.
{"type":"Feature","properties":{"name":"Newport News VA","country.etc":"VA","pop":" 183941", "happy score":"45.26","capital":"0"},"geometry":{"type":"Point","coordinates":[-76.51,37.08]}},

164.
{"type":"Feature","properties":{"name":"Charleston WV","country.etc":"WV","pop":"  49804", "happy score":"45.15","capital":"2"},"geometry":{"type":"Point","coordinates":[-81.63,38.35]}},

165.
{"type":"Feature","properties":{"name":"San Bernardino CA","country.etc":"CA","pop":" 205743", "happy score":"44.66","capital":"0"},"geometry":{"type":"Point","coordinates":[-117.29,34.14]}},

166.
{"type":"Feature","properties":{"name":"Saint Louis MO","country.etc":"MO","pop":" 315546", "happy score":"44.3","capital":"0"},"geometry":{"type":"Point","coordinates":[-90.24,38.64]}},

167.
{"type":"Feature","properties":{"name":"Newark NJ","country.etc":"NJ","pop":" 281378", "happy score":"43.97","capital":"0"},"geometry":{"type":"Point","coordinates":[-74.17,40.72]}},

168.
{"type":"Feature","properties":{"name":"Wilmington DE","country.etc":"DE","pop":"  71065", "happy score":"43.9","capital":"0"},"geometry":{"type":"Point","coordinates":[-75.53,39.74]}},

169.
{"type":"Feature","properties":{"name":"Birmingham AL","country.etc":"AL","pop":" 229300", "happy score":"43.87","capital":"0"},"geometry":{"type":"Point","coordinates":[-86.8,33.53]}},

170.
{"type":"Feature","properties":{"name":"Gulfport MS","country.etc":"MS","pop":"  71400", "happy score":"43.8","capital":"0"},"geometry":{"type":"Point","coordinates":[-89.07,30.39]}},

171.
{"type":"Feature","properties":{"name":"Columbus GA","country.etc":"GA","pop":" 184900", "happy score":"43.72","capital":"0"},"geometry":{"type":"Point","coordinates":[-84.87,32.51]}},

172.
{"type":"Feature","properties":{"name":"Tulsa OK","country.etc":"OK","pop":" 379833", "happy score":"43.32","capital":"0"},"geometry":{"type":"Point","coordinates":[-95.92,36.13]}},

173.
{"type":"Feature","properties":{"name":"Mobile AL","country.etc":"AL","pop":" 188467", "happy score":"43.24","capital":"0"},"geometry":{"type":"Point","coordinates":[-88.09,30.68]}},

174.
{"type":"Feature","properties":{"name":"Fayetteville NC","country.etc":"NC","pop":" 124919", "happy score":42.55","capital":"0"},"geometry":{"type":"Point","coordinates":[-78.9,35.07]}},

175.
{"type":"Feature","properties":{"name":"Huntington WV","country.etc":"WV","pop":"  47905", "happy score":"42.5","capital":"0"},"geometry":{"type":"Point","coordinates":[-82.43,38.41]}},

176.
{"type":"Feature","properties":{"name":"Dover DE","country.etc":"DE","pop":"  34288", "happy score":"42.4","capital":"2"},"geometry":{"type":"Point","coordinates":[-75.53,39.16]}},

177.
{"type":"Feature","properties":{"name":"Montgomery AL","country.etc":"AL","pop":" 197653", "happy score":"42.37","capital":"2"},"geometry":{"type":"Point","coordinates":[-86.28,32.35]}},

178.
{"type":"Feature","properties":{"name":"Toledo OH","country.etc":"OH","pop":" 305292", "happy score":"42.18","capital":"0"},"geometry":{"type":"Point","coordinates":[-83.58,41.66]}},

179.
{"type":"Feature","properties":{"name":"Memphis TN","country.etc":"TN","pop":" 639736", "happy score":"40.16","capital":"0"},"geometry":{"type":"Point","coordinates":[-90.01,35.11]}},

180.
{"type":"Feature","properties":{"name":"Augusta-Richmond GA","country.etc":"GA","pop":" 192376", "happy score":"38.76","capital":"0"},"geometry":{"type":"Point","coordinates":[-81.99,33.46]}},

181.
{"type":"Feature","properties":{"name":"Cleveland OH","country.etc":"OH","pop":" 443949", "happy score":"37.48","capital":"0"},"geometry":{"type":"Point","coordinates":[-81.68,41.48]}},

182.
{"type":"Feature","properties":{"name":"Detroit MI","country.etc":"MI","pop":" 871789", "happy score":"34.29","capital":"0"},"geometry":{"type":"Point","coordinates":[-83.1,42.38]}},










]
