[{"Overall Rank ":"1","City":"Fremont, CA","Total Score ":"73.66","Emotional & Physical Well-Being ":"1","Income & Employment ":"46","lat":"37.550195","lon":"-121.980829"},{"Overall Rank ":"2","City":"Bismarck, ND","Total Score ":"71.59","Emotional & Physical Well-Being ":"5","Income & Employment ":"5","lat":"46.87696","lon":"-96.784636"},{"Overall Rank ":"3","City":"Fargo, ND","Total Score ":"70.94","Emotional & Physical Well-Being ":"9","Income & Employment ":"3","lat":"46.80537","lon":"-100.781609"},{"Overall Rank ":"4","City":"Madison, WI","Total Score ":"70.14","Emotional & Physical Well-Being ":"13","Income & Employment ":"6","lat":"37.334807","lon":"-121.888128"},{"Overall Rank ":"5","City":"San Jose, CA","Total Score ":"69.47","Emotional & Physical Well-Being ":"2","Income & Employment ":"21","lat":"43.073926","lon":"-89.385244"},{"Overall Rank ":"6","City":"South Burlington, VT","Total Score ":"68.73","Emotional & Physical Well-Being ":"8","Income & Employment ":"11","lat":"44.468286","lon":"-73.171594"},{"Overall Rank ":"7","City":"Lincoln, NE","Total Score ":"68.35","Emotional & Physical Well-Being ":"14","Income & Employment ":"10","lat":"40.813599","lon":"-96.70261"},{"Overall Rank ":"8","City":"Columbia, MD","Total Score ":"67.73","Emotional & Physical Well-Being ":"4","Income & Employment ":"95","lat":"41.978122","lon":"-91.669808"},{"Overall Rank ":"9","City":"Cedar Rapids, IA","Total Score ":"67.64","Emotional & Physical Well-Being ":"11","Income & Employment ":"74","lat":"39.213641","lon":"-76.869905"},{"Overall Rank ":"10","City":"Santa Rosa, CA","Total Score ":"67.59","Emotional & Physical Well-Being ":"7","Income & Employment ":"32","lat":"38.439698","lon":"-122.715642"},{"Overall Rank ":"11","City":"Sioux Falls, SD","Total Score ":"67.43","Emotional & Physical Well-Being ":"24","Income & Employment ":"23","lat":"33.685908","lon":"-117.824719"},{"Overall Rank ":"12","City":"Irvine, CA","Total Score ":"67.27","Emotional & Physical Well-Being ":"15","Income & Employment ":"18","lat":"43.488765","lon":"-96.743185"},{"Overall Rank ":"13","City":"San Francisco, CA","Total Score ":"67.11","Emotional & Physical Well-Being ":"3","Income & Employment ":"15","lat":"37.78008","lon":"-122.420168"},{"Overall Rank ":"14","City":"Pearl City, HI","Total Score ":"66.58","Emotional & Physical Well-Being ":"16","Income & Employment ":"114","lat":"21.398204","lon":"-157.968395"},{"Overall Rank ":"15","City":"Burlington, VT","Total Score ":"66.19","Emotional & Physical Well-Being ":"26","Income & Employment ":"1","lat":"44.475949","lon":"-73.212481"},{"Overall Rank ":"16","City":"Minneapolis, MN","Total Score ":"65.98","Emotional & Physical Well-Being ":"6","Income & Employment ":"28","lat":"32.77647","lon":"-79.931027"},{"Overall Rank ":"17","City":"Plano, TX","Total Score ":"65.87","Emotional & Physical Well-Being ":"21","Income & Employment ":"44","lat":"33.019695","lon":"-96.697586"},{"Overall Rank ":"18","City":"Charleston, SC","Total Score ":"65.1","Emotional & Physical Well-Being ":"43","Income & Employment ":"16","lat":"44.977479","lon":"-93.264346"},{"Overall Rank ":"19","City":"Rapid City, SD","Total Score ":"65","Emotional & Physical Well-Being ":"51","Income & Employment ":"14","lat":"44.082995","lon":"-103.224443"},{"Overall Rank ":"20","City":"Seattle, WA","Total Score ":"64.74","Emotional & Physical Well-Being ":"10","Income & Employment ":"2","lat":"47.603229","lon":"-122.33028"},{"Overall Rank ":"21","City":"Boise, ID","Total Score ":"64.55","Emotional & Physical Well-Being ":"33","Income & Employment ":"13","lat":"43.615791","lon":"-116.201579"},{"Overall Rank ":"22","City":"Honolulu, HI","Total Score ":"64.45","Emotional & Physical Well-Being ":"19","Income & Employment ":"112","lat":"21.30992","lon":"-157.858158"},{"Overall Rank ":"23","City":"Portland, ME","Total Score ":"64.4","Emotional & Physical Well-Being ":"32","Income & Employment ":"17","lat":"33.494909","lon":"-111.926061"},{"Overall Rank ":"24","City":"St. Paul, MN","Total Score ":"64.31","Emotional & Physical Well-Being ":"22","Income & Employment ":"56","lat":"44.943719","lon":"-93.094281"},{"Overall Rank ":"25","City":"Scottsdale, AZ","Total Score ":"64.22","Emotional & Physical Well-Being ":"53","Income & Employment ":"48","lat":"43.659218","lon":"-70.256519"},{"Overall Rank ":"26","City":"San Diego, CA","Total Score ":"64.17","Emotional & Physical Well-Being ":"30","Income & Employment ":"39","lat":"32.71576","lon":"-117.163817"},{"Overall Rank ":"27","City":"Austin, TX","Total Score ":"64.13","Emotional & Physical Well-Being ":"20","Income & Employment ":"24","lat":"30.264979","lon":"-97.746598"},{"Overall Rank ":"28","City":"Overland Park, KS","Total Score ":"64.09","Emotional & Physical Well-Being ":"41","Income & Employment ":"12","lat":"38.974799","lon":"-94.683622"},{"Overall Rank ":"29","City":"Missoula, MT","Total Score ":"63.76","Emotional & Physical Well-Being ":"29","Income & Employment ":"19","lat":"42.965446","lon":"-85.670209"},{"Overall Rank ":"30","City":"Grand Rapids, MI","Total Score ":"63.56","Emotional & Physical Well-Being ":"48","Income & Employment ":"20","lat":"46.872129","lon":"-113.994017"},{"Overall Rank ":"31","City":"Cape Coral, FL","Total Score ":"63.23","Emotional & Physical Well-Being ":"54","Income & Employment ":"52","lat":"26.629814","lon":"-81.956363"},{"Overall Rank ":"32","City":"Raleigh, NC","Total Score ":"62.97","Emotional & Physical Well-Being ":"28","Income & Employment ":"70","lat":"35.781295","lon":"-78.64167"},{"Overall Rank ":"33","City":"Huntington Beach, CA","Total Score ":"62.95","Emotional & Physical Well-Being ":"25","Income & Employment ":"64","lat":"33.659775","lon":"-117.999313"},{"Overall Rank ":"34","City":"Aurora, CO","Total Score ":"62.56","Emotional & Physical Well-Being ":"17","Income & Employment ":"150","lat":"39.711213","lon":"-104.819356"},{"Overall Rank ":"35","City":"Omaha, NE","Total Score ":"62.53","Emotional & Physical Well-Being ":"46","Income & Employment ":"26","lat":"41.258652","lon":"-95.937195"},{"Overall Rank ":"36","City":"Des Moines, IA","Total Score ":"62.33","Emotional & Physical Well-Being ":"37","Income & Employment ":"88","lat":"33.330732","lon":"-111.79034"},{"Overall Rank ":"37","City":"Gilbert, AZ","Total Score ":"62.09","Emotional & Physical Well-Being ":"62","Income & Employment ":"47","lat":"35.996948","lon":"-78.899023"},{"Overall Rank ":"38","City":"Oakland, CA","Total Score ":"61.38","Emotional & Physical Well-Being ":"12","Income & Employment ":"127","lat":"41.588822","lon":"-93.620309"},{"Overall Rank ":"39","City":"Durham, NC","Total Score ":"61.18","Emotional & Physical Well-Being ":"34","Income & Employment ":"49","lat":"37.804828","lon":"-122.27248"},{"Overall Rank ":"40","City":"Garden Grove, CA","Total Score ":"60.81","Emotional & Physical Well-Being ":"45","Income & Employment ":"96","lat":"33.776069","lon":"-117.937878"},{"Overall Rank ":"41","City":"Anaheim, CA","Total Score ":"60.81","Emotional & Physical Well-Being ":"40","Income & Employment ":"87","lat":"33.834492","lon":"-117.915638"},{"Overall Rank ":"42","City":"Aurora, IL","Total Score ":"60.57","Emotional & Physical Well-Being ":"31","Income & Employment ":"152","lat":"41.75527","lon":"-88.309507"},{"Overall Rank ":"43","City":"Portland, OR","Total Score ":"60.52","Emotional & Physical Well-Being ":"35","Income & Employment ":"41","lat":"33.195906","lon":"-117.379517"},{"Overall Rank ":"44","City":"Oceanside, CA","Total Score ":"60.5","Emotional & Physical Well-Being ":"36","Income & Employment ":"101","lat":"45.516018","lon":"-122.681425"},{"Overall Rank ":"45","City":"Chula Vista, CA","Total Score ":"60.24","Emotional & Physical Well-Being ":"38","Income & Employment ":"111","lat":"32.640071","lon":"-117.084042"},{"Overall Rank ":"46","City":"Virginia Beach, VA","Total Score ":"60.09","Emotional & Physical Well-Being ":"49","Income & Employment ":"80","lat":"36.845117","lon":"-75.975518"},{"Overall Rank ":"47","City":"Oxnard, CA","Total Score ":"60.02","Emotional & Physical Well-Being ":"64","Income & Employment ":"109","lat":"34.197663","lon":"-119.175947"},{"Overall Rank ":"48","City":"Nampa, ID","Total Score ":"59.97","Emotional & Physical Well-Being ":"70","Income & Employment ":"60","lat":"43.585322","lon":"-116.573581"},{"Overall Rank ":"49","City":"Chandler, AZ","Total Score ":"59.86","Emotional & Physical Well-Being ":"67","Income & Employment ":"76","lat":"33.302285","lon":"-111.840103"},{"Overall Rank ":"50","City":"Nashua, NH","Total Score ":"59.84","Emotional & Physical Well-Being ":"59","Income & Employment ":"40","lat":"42.75787","lon":"-71.46395"},{"Overall Rank ":"51","City":"Washington, DC","Total Score ":"59.59","Emotional & Physical Well-Being ":"23","Income & Employment ":"69","lat":"33.575086","lon":"-112.237314"},{"Overall Rank ":"52","City":"Peoria, AZ","Total Score ":"59.43","Emotional & Physical Well-Being ":"77","Income & Employment ":"92","lat":"27.273274","lon":"-80.342148"},{"Overall Rank ":"53","City":"Port St. Lucie, FL","Total Score ":"59.33","Emotional & Physical Well-Being ":"86","Income & Employment ":"71","lat":"33.425522","lon":"-111.941253"},{"Overall Rank ":"54","City":"Santa Clarita, CA","Total Score ":"59.26","Emotional & Physical Well-Being ":"44","Income & Employment ":"149","lat":"34.414144","lon":"-118.554192"},{"Overall Rank ":"55","City":"Tempe, AZ","Total Score ":"59.17","Emotional & Physical Well-Being ":"84","Income & Employment ":"42","lat":"38.892062","lon":"-77.019912"},{"Overall Rank ":"56","City":"Colorado Springs, CO","Total Score ":"59.07","Emotional & Physical Well-Being ":"56","Income & Employment ":"66","lat":"38.835224","lon":"-104.819798"},{"Overall Rank ":"57","City":"Sacramento, CA","Total Score ":"59.07","Emotional & Physical Well-Being ":"52","Income & Employment ":"53","lat":"38.582087","lon":"-121.50012"},{"Overall Rank ":"58","City":"Glendale, CA","Total Score ":"58.93","Emotional & Physical Well-Being ":"55","Income & Employment ":"136","lat":"34.148138","lon":"-118.246437"},{"Overall Rank ":"59","City":"Salt Lake City, UT","Total Score ":"58.51","Emotional & Physical Well-Being ":"57","Income & Employment ":"22","lat":"39.526903","lon":"-119.813283"},{"Overall Rank ":"60","City":"Denver, CO","Total Score ":"58.32","Emotional & Physical Well-Being ":"27","Income & Employment ":"124","lat":"40.758478","lon":"-111.888142"},{"Overall Rank ":"61","City":"Boston, MA","Total Score ":"58.24","Emotional & Physical Well-Being ":"50","Income & Employment ":"37","lat":"42.358894","lon":"-71.056742"},{"Overall Rank ":"62","City":"Reno, NV","Total Score ":"58.16","Emotional & Physical Well-Being ":"80","Income & Employment ":"55","lat":"39.738453","lon":"-104.984853"},{"Overall Rank ":"63","City":"Amarillo, TX","Total Score ":"58.08","Emotional & Physical Well-Being ":"71","Income & Employment ":"67","lat":"35.207009","lon":"-101.832013"},{"Overall Rank ":"64","City":"Juneau, AK","Total Score ":"57.96","Emotional & Physical Well-Being ":"18","Income & Employment ":"8","lat":"58.301084","lon":"-134.424524"},{"Overall Rank ":"65","City":"Pembroke Pines, FL","Total Score ":"57.94","Emotional & Physical Well-Being ":"88","Income & Employment ":"134","lat":"26.006156","lon":"-80.279747"},{"Overall Rank ":"66","City":"Santa Ana, CA","Total Score ":"57.85","Emotional & Physical Well-Being ":"61","Income & Employment ":"61","lat":"35.222936","lon":"-80.840161"},{"Overall Rank ":"67","City":"Charlotte, NC","Total Score ":"57.79","Emotional & Physical Well-Being ":"58","Income & Employment ":"99","lat":"33.749738","lon":"-117.869781"},{"Overall Rank ":"68","City":"Chesapeake, VA","Total Score ":"57.74","Emotional & Physical Well-Being ":"94","Income & Employment ":"105","lat":"36.71461","lon":"-76.249925"},{"Overall Rank ":"69","City":"Manchester, NH","Total Score ":"57.66","Emotional & Physical Well-Being ":"76","Income & Employment ":"65","lat":"42.990926","lon":"-71.463091"},{"Overall Rank ":"70","City":"Grand Prairie, TX","Total Score ":"57.2","Emotional & Physical Well-Being ":"85","Income & Employment ":"90","lat":"32.745496","lon":"-97.003529"},{"Overall Rank ":"71","City":"Rancho Cucamonga, CA","Total Score ":"57.06","Emotional & Physical Well-Being ":"93","Income & Employment ":"36","lat":"34.106399","lon":"-117.575764"},{"Overall Rank ":"72","City":"Anchorage, AK","Total Score ":"56.99","Emotional & Physical Well-Being ":"39","Income & Employment ":"29","lat":"61.216583","lon":"-149.899597"},{"Overall Rank ":"73","City":"Billings, MT","Total Score ":"56.92","Emotional & Physical Well-Being ":"90","Income & Employment ":"25","lat":"45.78265","lon":"-108.504578"},{"Overall Rank ":"74","City":"Vancouver, WA","Total Score ":"56.89","Emotional & Physical Well-Being ":"47","Income & Employment ":"102","lat":"45.631061","lon":"-122.671567"},{"Overall Rank ":"75","City":"Yonkers, NY","Total Score ":"56.89","Emotional & Physical Well-Being ":"60","Income & Employment ":"146","lat":"40.932014","lon":"-73.896052"},{"Overall Rank ":"76","City":"Pittsburgh, PA","Total Score ":"56.28","Emotional & Physical Well-Being ":"100","Income & Employment ":"45","lat":"40.442169","lon":"-79.994945"},{"Overall Rank ":"77","City":"Garland, TX","Total Score ":"56.24","Emotional & Physical Well-Being ":"78","Income & Employment ":"108","lat":"41.14024","lon":"-104.818802"},{"Overall Rank ":"78","City":"Cheyenne, WY","Total Score ":"56.08","Emotional & Physical Well-Being ":"72","Income & Employment ":"9","lat":"32.914343","lon":"-96.636564"},{"Overall Rank ":"79","City":"Columbia, SC","Total Score ":"56.08","Emotional & Physical Well-Being ":"128","Income & Employment ":"4","lat":"30.440741","lon":"-84.278328"},{"Overall Rank ":"80","City":"Tallahassee, FL","Total Score ":"55.99","Emotional & Physical Well-Being ":"96","Income & Employment ":"43","lat":"34.009286","lon":"-81.037094"},{"Overall Rank ":"81","City":"Nashville, TN","Total Score ":"55.93","Emotional & Physical Well-Being ":"104","Income & Employment ":"77","lat":"36.166687","lon":"-86.779932"},{"Overall Rank ":"82","City":"Mesa, AZ","Total Score ":"55.92","Emotional & Physical Well-Being ":"97","Income & Employment ":"118","lat":"33.41514","lon":"-111.831498"},{"Overall Rank ":"83","City":"Fort Worth, TX","Total Score ":"55.76","Emotional & Physical Well-Being ":"75","Income & Employment ":"131","lat":"32.739977","lon":"-97.340038"},{"Overall Rank ":"84","City":"Chicago, IL","Total Score ":"55.65","Emotional & Physical Well-Being ":"42","Income & Employment ":"174","lat":"41.883229","lon":"-87.632398"},{"Overall Rank ":"85","City":"Irving, TX","Total Score ":"55.31","Emotional & Physical Well-Being ":"73","Income & Employment ":"63","lat":"32.813879","lon":"-96.949933"},{"Overall Rank ":"86","City":"Tampa, FL","Total Score ":"55.23","Emotional & Physical Well-Being ":"111","Income & Employment ":"58","lat":"27.947423","lon":"-82.458776"},{"Overall Rank ":"87","City":"West Valley City, UT","Total Score ":"55.23","Emotional & Physical Well-Being ":"81","Income & Employment ":"62","lat":"40.696682","lon":"-111.959172"},{"Overall Rank ":"88","City":"Lewiston, ME","Total Score ":"55.13","Emotional & Physical Well-Being ":"130","Income & Employment ":"7","lat":"44.100658","lon":"-70.214978"},{"Overall Rank ":"89","City":"Riverside, CA","Total Score ":"54.79","Emotional & Physical Well-Being ":"83","Income & Employment ":"34","lat":"33.748547","lon":"-84.391502"},{"Overall Rank ":"90","City":"Atlanta, GA","Total Score ":"54.75","Emotional & Physical Well-Being ":"79","Income & Employment ":"104","lat":"33.980534","lon":"-117.377025"},{"Overall Rank ":"91","City":"Huntsville, AL","Total Score ":"54.7","Emotional & Physical Well-Being ":"155","Income & Employment ":"31","lat":"47.25308","lon":"-122.44153"},{"Overall Rank ":"92","City":"Tacoma, WA","Total Score ":"54.59","Emotional & Physical Well-Being ":"66","Income & Employment ":"129","lat":"34.729538","lon":"-86.585283"},{"Overall Rank ":"93","City":"Moreno Valley, CA","Total Score ":"54.48","Emotional & Physical Well-Being ":"95","Income & Employment ":"125","lat":"33.917114","lon":"-117.261144"},{"Overall Rank ":"94","City":"Fort Wayne, IN","Total Score ":"54.45","Emotional & Physical Well-Being ":"105","Income & Employment ":"117","lat":"41.077474","lon":"-85.137495"},{"Overall Rank ":"95","City":"Springfield, MO","Total Score ":"54.24","Emotional & Physical Well-Being ":"136","Income & Employment ":"27","lat":"42.850087","lon":"-106.325203"},{"Overall Rank ":"96","City":"Casper, WY","Total Score ":"54.21","Emotional & Physical Well-Being ":"65","Income & Employment ":"93","lat":"37.215521","lon":"-93.292361"},{"Overall Rank ":"97","City":"Lexington-Fayette, KY","Total Score ":"54.2","Emotional & Physical Well-Being ":"119","Income & Employment ":"54","lat":"26.124163","lon":"-80.143586"},{"Overall Rank ":"98","City":"Fort Lauderdale, FL","Total Score ":"54.12","Emotional & Physical Well-Being ":"99","Income & Employment ":"137","lat":"34.052238","lon":"-118.243344"},{"Overall Rank ":"99","City":"Los Angeles, CA","Total Score ":"53.99","Emotional & Physical Well-Being ":"69","Income & Employment ":"132","lat":"38.046356","lon":"-84.497021"},{"Overall Rank ":"100","City":"Salem, OR","Total Score ":"53.95","Emotional & Physical Well-Being ":"108","Income & Employment ":"35","lat":"44.939016","lon":"-123.039307"},{"Overall Rank ":"101","City":"Las Cruces, NM","Total Score ":"53.72","Emotional & Physical Well-Being ":"113","Income & Employment ":"107","lat":"32.316215","lon":"-106.780434"},{"Overall Rank ":"102","City":"Arlington, TX","Total Score ":"53.58","Emotional & Physical Well-Being ":"87","Income & Employment ":"140","lat":"32.735594","lon":"-97.10711"},{"Overall Rank ":"103","City":"Modesto, CA","Total Score ":"53.37","Emotional & Physical Well-Being ":"110","Income & Employment ":"57","lat":"32.777977","lon":"-96.796215"},{"Overall Rank ":"104","City":"Dallas, TX","Total Score ":"53.3","Emotional & Physical Well-Being ":"74","Income & Employment ":"128","lat":"37.640735","lon":"-121.002435"},{"Overall Rank ":"105","City":"Ontario, CA","Total Score ":"53.27","Emotional & Physical Well-Being ":"121","Income & Employment ":"68","lat":"48.481266","lon":"-89.323622"},{"Overall Rank ":"106","City":"Spokane, WA","Total Score ":"53.1","Emotional & Physical Well-Being ":"112","Income & Employment ":"50","lat":"47.658999","lon":"-117.425022"},{"Overall Rank ":"107","City":"Fontana, CA","Total Score ":"52.96","Emotional & Physical Well-Being ":"120","Income & Employment ":"94","lat":"34.102893","lon":"-117.435765"},{"Overall Rank ":"108","City":"Jersey City, NJ","Total Score ":"52.88","Emotional & Physical Well-Being ":"82","Income & Employment ":"177","lat":"40.717495","lon":"-74.044111"},{"Overall Rank ":"109","City":"St. Petersburg, FL","Total Score ":"52.57","Emotional & Physical Well-Being ":"124","Income & Employment ":"51","lat":"27.772069","lon":"-82.638488"},{"Overall Rank ":"110","City":"Columbus, OH","Total Score ":"52.48","Emotional & Physical Well-Being ":"106","Income & Employment ":"110","lat":"39.962649","lon":"-82.996216"},{"Overall Rank ":"111","City":"Jacksonville, FL","Total Score ":"52.41","Emotional & Physical Well-Being ":"137","Income & Employment ":"98","lat":"33.767168","lon":"-118.193723"},{"Overall Rank ":"112","City":"Long Beach, CA","Total Score ":"52.39","Emotional & Physical Well-Being ":"68","Income & Employment ":"171","lat":"30.325968","lon":"-81.65676"},{"Overall Rank ":"113","City":"Bridgeport, CT","Total Score ":"52.37","Emotional & Physical Well-Being ":"63","Income & Employment ":"176","lat":"41.179195","lon":"-73.189476"},{"Overall Rank ":"114","City":"Milwaukee, WI","Total Score ":"52.28","Emotional & Physical Well-Being ":"91","Income & Employment ":"162","lat":"43.041072","lon":"-87.909421"},{"Overall Rank ":"115","City":"Henderson, NV","Total Score ":"52.26","Emotional & Physical Well-Being ":"101","Income & Employment ":"170","lat":"36.034095","lon":"-114.984455"},{"Overall Rank ":"116","City":"Warwick, RI","Total Score ":"52.07","Emotional & Physical Well-Being ":"133","Income & Employment ":"78","lat":"33.583578","lon":"-101.855113"},{"Overall Rank ":"117","City":"Lubbock, TX","Total Score ":"51.93","Emotional & Physical Well-Being ":"116","Income & Employment ":"33","lat":"39.099792","lon":"-94.578559"},{"Overall Rank ":"118","City":"Kansas City, MO","Total Score ":"51.9","Emotional & Physical Well-Being ":"102","Income & Employment ":"121","lat":"41.698709","lon":"-71.460018"},{"Overall Rank ":"119","City":"Glendale, AZ","Total Score ":"51.71","Emotional & Physical Well-Being ":"107","Income & Employment ":"145","lat":"33.539812","lon":"-112.186106"},{"Overall Rank ":"120","City":"Albuquerque, NM","Total Score ":"51.04","Emotional & Physical Well-Being ":"89","Income & Employment ":"72","lat":"35.084248","lon":"-106.649241"},{"Overall Rank ":"121","City":"Orlando, FL","Total Score ":"50.93","Emotional & Physical Well-Being ":"129","Income & Employment ":"97","lat":"28.538331","lon":"-81.378879"},{"Overall Rank ":"122","City":"New York, NY","Total Score ":"50.91","Emotional & Physical Well-Being ":"109","Income & Employment ":"178","lat":"40.713054","lon":"-74.007228"},{"Overall Rank ":"123","City":"Houston, TX","Total Score ":"50.83","Emotional & Physical Well-Being ":"92","Income & Employment ":"159","lat":"29.760803","lon":"-95.369506"},{"Overall Rank ":"124","City":"Rochester, NY","Total Score ":"50.52","Emotional & Physical Well-Being ":"118","Income & Employment ":"135","lat":"43.155708","lon":"-77.612547"},{"Overall Rank ":"125","City":"Brownsville, TX","Total Score ":"50.21","Emotional & Physical Well-Being ":"151","Income & Employment ":"122","lat":"25.903046","lon":"-97.498884"},{"Overall Rank ":"126","City":"Phoenix, AZ","Total Score ":"50.13","Emotional & Physical Well-Being ":"103","Income & Employment ":"148","lat":"33.448204","lon":"-112.072585"},{"Overall Rank ":"127","City":"Winston-Salem, NC","Total Score ":"49.92","Emotional & Physical Well-Being ":"134","Income & Employment ":"84","lat":"31.76006","lon":"-106.492257"},{"Overall Rank ":"128","City":"El Paso, TX","Total Score ":"49.92","Emotional & Physical Well-Being ":"146","Income & Employment ":"142","lat":"36.096261","lon":"-80.243735"},{"Overall Rank ":"129","City":"Fort Smith, AR","Total Score ":"49.83","Emotional & Physical Well-Being ":"158","Income & Employment ":"75","lat":"35.386636","lon":"-94.424357"},{"Overall Rank ":"130","City":"Miami, FL","Total Score ":"49.82","Emotional & Physical Well-Being ":"126","Income & Employment ":"133","lat":"25.775084","lon":"-80.194702"},{"Overall Rank ":"131","City":"Richmond, VA","Total Score ":"49.68","Emotional & Physical Well-Being ":"117","Income & Employment ":"144","lat":"37.540759","lon":"-77.433932"},{"Overall Rank ":"132","City":"Greensboro, NC","Total Score ":"49.51","Emotional & Physical Well-Being ":"123","Income & Employment ":"85","lat":"36.072701","lon":"-79.793899"},{"Overall Rank ":"133","City":"Jackson, MS","Total Score ":"49.41","Emotional & Physical Well-Being ":"131","Income & Employment ":"154","lat":"36.846164","lon":"-76.285913"},{"Overall Rank ":"134","City":"Norfolk, VA","Total Score ":"49.35","Emotional & Physical Well-Being ":"122","Income & Employment ":"160","lat":"39.76845","lon":"-86.156212"},{"Overall Rank ":"135","City":"Buffalo, NY","Total Score ":"49.18","Emotional & Physical Well-Being ":"141","Income & Employment ":"115","lat":"27.796416","lon":"-97.404131"},{"Overall Rank ":"136","City":"Indianapolis, IN","Total Score ":"49.14","Emotional & Physical Well-Being ":"115","Income & Employment ":"169","lat":"32.302897","lon":"-90.183488"},{"Overall Rank ":"137","City":"Corpus Christi, TX","Total Score ":"49.11","Emotional & Physical Well-Being ":"132","Income & Employment ":"103","lat":"42.887691","lon":"-78.879374"},{"Overall Rank ":"138","City":"Worcester, MA","Total Score ":"48.92","Emotional & Physical Well-Being ":"114","Income & Employment ":"126","lat":"42.262073","lon":"-71.802278"},{"Overall Rank ":"139","City":"Chattanooga, TN","Total Score ":"48.84","Emotional & Physical Well-Being ":"159","Income & Employment ":"79","lat":"35.045756","lon":"-85.308287"},{"Overall Rank ":"140","City":"Knoxville, TN","Total Score ":"48.66","Emotional & Physical Well-Being ":"170","Income & Employment ":"30","lat":"29.425173","lon":"-98.494599"},{"Overall Rank ":"141","City":"San Antonio, TX","Total Score ":"48.61","Emotional & Physical Well-Being ":"145","Income & Employment ":"89","lat":"32.221878","lon":"-110.971225"},{"Overall Rank ":"142","City":"Tucson, AZ","Total Score ":"48.37","Emotional & Physical Well-Being ":"142","Income & Employment ":"100","lat":"35.468494","lon":"-97.521264"},{"Overall Rank ":"143","City":"Oklahoma City, OK","Total Score ":"48.36","Emotional & Physical Well-Being ":"144","Income & Employment ":"113","lat":"35.962631","lon":"-83.916677"},{"Overall Rank ":"144","City":"New Haven, CT","Total Score ":"48.16","Emotional & Physical Well-Being ":"98","Income & Employment ":"153","lat":"41.308252","lon":"-72.924161"},{"Overall Rank ":"145","City":"Providence, RI","Total Score ":"47.95","Emotional & Physical Well-Being ":"167","Income & Employment ":"82","lat":"41.824461","lon":"-71.412747"},{"Overall Rank ":"146","City":"Wichita, KS","Total Score ":"47.87","Emotional & Physical Well-Being ":"140","Income & Employment ":"106","lat":"37.686024","lon":"-97.335571"},{"Overall Rank ":"147","City":"Little Rock, AR","Total Score ":"47.56","Emotional & Physical Well-Being ":"150","Income & Employment ":"165","lat":"34.748745","lon":"-92.275105"},{"Overall Rank ":"148","City":"Shreveport, LA","Total Score ":"47.55","Emotional & Physical Well-Being ":"149","Income & Employment ":"168","lat":"39.104427","lon":"-84.513808"},{"Overall Rank ":"149","City":"Cincinnati, OH","Total Score ":"47.43","Emotional & Physical Well-Being ":"139","Income & Employment ":"83","lat":"32.51424","lon":"-93.747757"},{"Overall Rank ":"150","City":"Stockton, CA","Total Score ":"47.13","Emotional & Physical Well-Being ":"127","Income & Employment ":"139","lat":"37.957541","lon":"-121.292451"},{"Overall Rank ":"151","City":"Las Vegas, NV","Total Score ":"47.04","Emotional & Physical Well-Being ":"138","Income & Employment ":"178","lat":"36.169202","lon":"-115.140597"},{"Overall Rank ":"152","City":"New Orleans, LA","Total Score ":"47","Emotional & Physical Well-Being ":"143","Income & Employment ":"156","lat":"29.950621","lon":"-90.074948"},{"Overall Rank ":"153","City":"Louisville, KY","Total Score ":"46.55","Emotional & Physical Well-Being ":"164","Income & Employment ":"123","lat":"38.256078","lon":"-85.751569"},{"Overall Rank ":"154","City":"Akron, OH","Total Score ":"46.48","Emotional & Physical Well-Being ":"156","Income & Employment ":"150","lat":"35.373405","lon":"-119.018911"},{"Overall Rank ":"155","City":"Bakersfield, CA","Total Score ":"46.44","Emotional & Physical Well-Being ":"160","Income & Employment ":"120","lat":"41.084821","lon":"-81.515607"},{"Overall Rank ":"156","City":"Fresno, CA","Total Score ":"46.43","Emotional & Physical Well-Being ":"154","Income & Employment ":"73","lat":"36.731654","lon":"-119.785856"},{"Overall Rank ":"157","City":"Baltimore, MD","Total Score ":"46.23","Emotional & Physical Well-Being ":"125","Income & Employment ":"173","lat":"39.290443","lon":"-76.612333"},{"Overall Rank ":"158","City":"Hialeah, FL","Total Score ":"46.02","Emotional & Physical Well-Being ":"135","Income & Employment ":"175","lat":"25.827202","lon":"-80.281502"},{"Overall Rank ":"159","City":"North Las Vegas, NV","Total Score ":"45.92","Emotional & Physical Well-Being ":"147","Income & Employment ":"181","lat":"36.197539","lon":"-115.116984"},{"Overall Rank ":"160","City":"Philadelphia, PA","Total Score ":"45.8","Emotional & Physical Well-Being ":"165","Income & Employment ":"158","lat":"39.951061","lon":"-75.16562"},{"Overall Rank ":"161","City":"Laredo, TX","Total Score ":"45.72","Emotional & Physical Well-Being ":"166","Income & Employment ":"86","lat":"27.507114","lon":"-99.507505"},{"Overall Rank ":"162","City":"Baton Rouge, LA","Total Score ":"45.54","Emotional & Physical Well-Being ":"161","Income & Employment ":"91","lat":"30.443319","lon":"-91.187488"},{"Overall Rank ":"163","City":"Newport News, VA","Total Score ":"45.26","Emotional & Physical Well-Being ":"152","Income & Employment ":"166","lat":"36.977714","lon":"-76.430349"},{"Overall Rank ":"164","City":"Charleston, WV","Total Score ":"45.15","Emotional & Physical Well-Being ":"172","Income & Employment ":"81","lat":"38.351194","lon":"-81.638362"},{"Overall Rank ":"165","City":"San Bernardino, CA","Total Score ":"44.66","Emotional & Physical Well-Being ":"148","Income & Employment ":"155","lat":"34.108323","lon":"-117.29415"},{"Overall Rank ":"166","City":"St. Louis, MO","Total Score ":"44.3","Emotional & Physical Well-Being ":"157","Income & Employment ":"147","lat":"38.630276","lon":"-90.200309"},{"Overall Rank ":"167","City":"Newark, NJ","Total Score ":"43.97","Emotional & Physical Well-Being ":"153","Income & Employment ":"182","lat":"40.731507","lon":"-74.174388"},{"Overall Rank ":"168","City":"Wilmington, DE","Total Score ":"43.9","Emotional & Physical Well-Being ":"162","Income & Employment ":"116","lat":"33.522859","lon":"-86.807705"},{"Overall Rank ":"169","City":"Birmingham, AL","Total Score ":"43.87","Emotional & Physical Well-Being ":"169","Income & Employment ":"143","lat":"39.744432","lon":"-75.5451"},{"Overall Rank ":"170","City":"Gulfport, MS","Total Score ":"43.8","Emotional & Physical Well-Being ":"180","Income & Employment ":"130","lat":"30.369834","lon":"-89.091582"},{"Overall Rank ":"171","City":"Columbus, GA","Total Score ":"43.72","Emotional & Physical Well-Being ":"179","Income & Employment ":"138","lat":"32.466682","lon":"-84.990405"},{"Overall Rank ":"172","City":"Tulsa, OK","Total Score ":"43.32","Emotional & Physical Well-Being ":"163","Income & Employment ":"119","lat":"36.155327","lon":"-95.992083"},{"Overall Rank ":"173","City":"Mobile, AL","Total Score ":"43.24","Emotional & Physical Well-Being ":"173","Income & Employment ":"161","lat":"30.688943","lon":"-88.044822"},{"Overall Rank ":"174","City":"Fayetteville, NC","Total Score ":"42.55","Emotional & Physical Well-Being ":"171","Income & Employment ":"163","lat":"32.376547","lon":"-86.299651"},{"Overall Rank ":"175","City":"Huntington, WV","Total Score ":"42.5","Emotional & Physical Well-Being ":"181","Income & Employment ":"38","lat":"38.419051","lon":"-82.445205"},{"Overall Rank ":"176","City":"Dover, DE","Total Score ":"42.4","Emotional & Physical Well-Being ":"174","Income & Employment ":"59","lat":"39.161912","lon":"-75.524704"},{"Overall Rank ":"177","City":"Montgomery, AL","Total Score ":"42.37","Emotional & Physical Well-Being ":"177","Income & Employment ":"164","lat":"35.143378","lon":"-90.052136"},{"Overall Rank ":"178","City":"Toledo, OH","Total Score ":"42.18","Emotional & Physical Well-Being ":"176","Income & Employment ":"141","lat":"35.054417","lon":"-78.883659"},{"Overall Rank ":"179","City":"Memphis, TN","Total Score ":"40.16","Emotional & Physical Well-Being ":"168","Income & Employment ":"172","lat":"41.655298","lon":"-83.535717"},{"Overall Rank ":"180","City":"Augusta, GA","Total Score ":"38.76","Emotional & Physical Well-Being ":"182","Income & Employment ":"157","lat":"33.472494","lon":"-81.964397"},{"Overall Rank ":"181","City":"Cleveland, OH","Total Score ":"37.48","Emotional & Physical Well-Being ":"175","Income & Employment ":"167","lat":"42.332916","lon":"-83.047853"},{"Overall Rank ":"182","City":"Detroit, MI","Total Score ":"34.29","Emotional & Physical Well-Being ":"178","Income & Employment ":"180","lat":"41.505546","lon":"-81.6915"}]